_id,Sl. No,Zone,District,Taluk,Name of Sub-Station,Voltage Class (in kV),Date of commission,geometry,transformer_id,name,substation_id,phase,capacity_MVA,current_load_MVA,industrial_consumption_kwh,residential_consumption_kwh,commercial_consumption_kwh,load_shedding_events,ev_charging_load_estimate,solar_potential_kw,ward_id,h3_index,lon,lat
1,1,Bengaluru,Bangalore Urban,Bangalore East,Hoody,400,31-03-1995,POINT (77.56236203565422 13.085214291922975),trf_1,Hoody,,3.0,0.145,0.031,305.0,1205.0,273.0,0.0,180.83,696.51,ward_1,8860169619fffff,77.56236203565422,13.085214291922975
2,2,Bengaluru,Bangalore Rural,Nelamangala,Nelamangala,400,31-03-2002,POINT (77.66959818254342 12.97959754525911),trf_2,Nelamangala,,3.0,0.403,0.269,2085.0,4653.0,284.0,1.0,51.65,918.27,ward_2,8861892e1bfffff,77.66959818254342,12.97959754525911
3,3,Bengaluru,Bangalore Urban,Bangalore North,AnandRao Circle,220,28-05-2010,POINT (77.49680559213273 12.84679835610086),trf_3,AnandRao Circle,,3.0,0.335,0.226,483.0,1234.0,207.0,0.0,30.38,277.65,ward_3,8860145063fffff,77.49680559213273,12.84679835610086
4,4,Bengaluru,Ramanagar,Ramanagara,Bidadi,220,29-10-1998,POINT (77.46742508365047 13.05985284373248),trf_4,Bidadi,,3.0,4.111,3.587,11691.0,37032.0,3400.0,0.0,8.17,337.87,ward_4,88601459b1fffff,77.46742508365047,13.05985284373248
5,5,Bengaluru,CB Pura,Chintamani,Chintamani,220,18-12-2002,POINT (77.63033450352296 13.012421773338813),trf_5,Chintamani,,3.0,1.798,0.522,4971.0,8733.0,3144.0,0.0,138.08,78.62,ward_5,8861892ea3fffff,77.63033450352296,13.012421773338813
6,6,Bengaluru,Bangalore Rural,DB pura,D B Pura,220,12-10-1998,POINT (77.45617534828874 13.090972955648597),trf_6,D B Pura,,3.0,0.091,0.078,503.0,323.0,121.0,1.0,36.9,418.7,ward_6,8860144b0bfffff,77.45617534828874,13.090972955648597
7,7,Bengaluru,Bangalore Rural,Nelamangala,Dabaspet (Nelamangala),220,31-03-2009,POINT (77.69973279224013 12.863701733203483),trf_7,Dabaspet (Nelamangala),,3.0,0.622,0.296,1726.0,6050.0,110.0,0.0,142.67,1790.41,ward_7,886189274bfffff,77.69973279224013,12.863701733203483
8,8,Bengaluru,Bangalore Rural,Devanahalli,"Devanahalli  (BangaloreIA)",220,25-11-2006,POINT (77.50454749016214 12.855021352956031),trf_8,"Devanahalli  (BangaloreIA)",,3.0,0.116,0.062,371.0,601.0,150.0,0.0,4.01,644.16,ward_8,886014515bfffff,77.50454749016214,12.855021352956031
9,9,Bengaluru,Bangalore Urban,Bangalore East,East DivisionCompound,220,20-12-2010,POINT (77.54127267288786 12.957426929489671),trf_9,East DivisionCompound,,3.0,0.129,0.112,459.0,1175.0,489.0,0.0,17.38,1074.21,ward_9,8860145a2bfffff,77.54127267288786,12.957426929489671
10,10,Bengaluru,Bangalore Urban,Bangalore East,"EPIP, White field (GIS)",220,10-01-2014,POINT (77.57958350559264 12.887368742059413),trf_10,"EPIP, White field (GIS)",,3.0,0.437,0.129,744.0,2739.0,1355.0,0.0,71.22,1973.03,ward_10,886189248dfffff,77.57958350559264,12.887368742059413
11,11,Bengaluru,CB Pura,Gowribidanur,Gowribidanur,220,27-03-1987,POINT (77.63355586841672 12.841848158195614),trf_11,Gowribidanur,,3.0,0.111,0.035,164.0,494.0,99.0,0.0,34.67,1793.53,ward_11,88618926edfffff,77.63355586841672,12.841848158195614
12,12,Bengaluru,Bangalore Urban,Bangalore East,HAL,220,31-08-2008,POINT (77.53764339456056 12.909908552988108),trf_12,HAL,,1.0,0.416,0.39,280.0,2738.0,1936.0,2.0,34.18,1337.29,ward_12,8860145a5bfffff,77.53764339456056,12.909908552988108
13,13,Bengaluru,Bangalore Urban,Bangalore North,Hebbal,220,02-07-1994,POINT (77.58682099526511 13.035552788417904),trf_13,Hebbal,,3.0,0.576,0.236,2659.0,2698.0,895.0,0.0,101.52,484.82,ward_13,8861892c99fffff,77.58682099526511,13.035552788417904
14,14,Bengaluru,Bangalore Urban,Bangalore East,Hoody,220,15-01-1979,POINT (77.5099021346475 12.954270331524084),trf_14,Hoody,,1.0,0.296,0.188,274.0,2170.0,757.0,0.0,67.32,268.83,ward_14,8860145ae5fffff,77.5099021346475,12.954270331524084
15,15,Bengaluru,Bangalore Rural,Hosakote,Hosakote,220,04-04-2009,POINT (77.62772437065861 12.813935123816),trf_15,Hosakote,,1.0,0.329,0.266,503.0,3005.0,1201.0,0.0,94.32,823.68,ward_15,886014c927fffff,77.62772437065861,12.813935123816
16,16,Bengaluru,Bangalore Urban,Bangalore South,HSR  Layout,220,26-01-1998,POINT (77.63226345557044 12.851157237106188),trf_16,HSR  Layout,,3.0,0.832,0.769,620.0,7969.0,3747.0,0.0,13.3,1482.24,ward_16,8861892633fffff,77.63226345557044,12.851157237106188
17,17,Bengaluru,Bangalore Urban,Anekal,Jigani/ Bannergatta,220,30-09-2011,POINT (77.46951547789558 13.084665661176),trf_17,Jigani/ Bannergatta,,3.0,0.148,0.118,179.0,662.0,117.0,1.0,104.61,717.66,ward_17,8860144b43fffff,77.46951547789558,13.084665661176
18,18,Bengaluru,Ramanagar,Kanakapura,Kanakapura,220,01-01-2008,POINT (77.73968960992237 13.042519204434939),trf_18,Kanakapura,,3.0,0.818,0.433,1850.0,5860.0,1183.0,1.0,46.44,1799.15,ward_18,8861892f6bfffff,77.73968960992237,13.042519204434939
19,19,Bengaluru,Bangalore Urban,Bangalore South,Khodays glass factory,220,30-07-2015,POINT (77.54138413075201 12.829301634201915),trf_19,Khodays glass factory,,3.0,113.275,99.665,424263.0,459000.0,511006.0,1.0,27.85,1588.05,ward_19,886014530bfffff,77.54138413075201,12.829301634201915
20,20,Bengaluru,Bangalore Rural,DB pura,KIADB  (D B Pura),220,13-07-1995,POINT (77.65526990795365 12.932045748121881),trf_20,KIADB  (D B Pura),,3.0,0.895,0.708,814.0,5196.0,1068.0,1.0,113.98,1524.92,ward_20,886189250bfffff,77.65526990795365,12.932045748121881
21,21,Bengaluru,Kolar,Kolar,Kolar,220,21-08-2009,POINT (77.48661147045344 12.94855307303338),trf_21,Kolar,,3.0,0.823,0.233,4180.0,3413.0,1569.0,1.0,45.85,1444.51,ward_21,8860145a85fffff,77.48661147045344,12.94855307303338
22,22,Bengaluru,Bengaluru Urban,Bengaluru South,Koramangala,220,Completed,POINT (77.46031655633456 13.072796120623634),trf_22,Koramangala,,3.0,0.697,0.423,1053.0,4260.0,608.0,1.0,80.17,924.01,ward_22,8860144b5dfffff,77.46031655633456,13.072796120623634
23,23,Bengaluru,Ramanagar,Magadi,Magadi,220,14-02-2017,POINT (77.52763399448001 12.998756685306194),trf_23,Magadi,,3.0,6.276,3.636,23025.0,19851.0,26273.0,1.0,139.33,1845.0,ward_23,8860145863fffff,77.52763399448001,12.998756685306194
24,24,Bengaluru,Kolar,Malur,Malur,220,22-09-1999,POINT (77.54351332282683 12.956020406353343),trf_24,Malur,,3.0,6.187,4.053,15745.0,59568.0,27748.0,1.0,22.65,1969.68,ward_24,8860145a2bfffff,77.54351332282683,12.956020406353343
25,25,Bengaluru,C B pura,Bagepalli,Mittemari,220,30-03-2019,POINT (77.61401308380299 12.855456336657658),trf_25,Mittemari,,3.0,9.288,7.917,28914.0,77290.0,17788.0,0.0,67.04,1605.71,ward_25,88618926adfffff,77.61401308380299,12.855456336657658
26,26,Bengaluru,Bangalore Urban,Bangalore South,Naganathapura,220,29-05-2009,POINT (77.74087538832937 13.032539847008334),trf_26,Naganathapura,,1.0,0.404,0.244,2230.0,2471.0,673.0,1.0,44.92,904.88,ward_26,8861892f41fffff,77.74087538832937,13.032539847008334
27,27,Bengaluru,Bangalore Urban,Bangalore South,Nimhans,220,26-02-2012,POINT (77.73184968246926 13.068448205128295),trf_27,Nimhans,,1.0,5.485,2.82,30108.0,34345.0,15286.0,1.0,132.71,356.07,ward_27,8861892f2dfffff,77.73184968246926,13.068448205128295
28,28,Bengaluru,Bangalore Urban,Bangalore North,NRS (220kV) Rajainagar,220,05-06-1998,POINT (77.62936999364332 13.076562270506935),trf_28,NRS (220kV) Rajainagar,,3.0,4.732,1.249,28303.0,35583.0,13523.0,0.0,149.99,419.81,ward_28,8861892dd1fffff,77.62936999364332,13.076562270506935
29,29,Bengaluru,Bangalore Urban,Anekal,Sarjapur,220,31-03-2009,POINT (77.47654775061558 12.858794858725744),trf_29,Sarjapur,,3.0,0.199,0.045,564.0,1609.0,63.0,1.0,104.88,881.53,ward_29,8860145023fffff,77.47654775061558,12.858794858725744
30,30,Bengaluru,Bangalore Urban,Bangalore South,Somanahalli,220,01-07-1986,POINT (77.46356818667316 12.89759909922898),trf_30,Somanahalli,,3.0,0.164,0.055,848.0,1888.0,294.0,0.0,128.8,817.47,ward_30,88601451e3fffff,77.46356818667316,12.89759909922898
31,31,Bengaluru,Bangalore Urban,Bangalore North,SRS Peenya,220,25-01-1965,POINT (77.56660318690685 12.88140470953217),trf_31,SRS Peenya,,1.0,7.444,5.168,1210.0,37203.0,8257.0,1.0,20.82,1599.83,ward_31,886189248bfffff,77.56660318690685,12.88140470953217
32,32,Bengaluru,Bangalore Urban,Bangalore South,Subramanyapura,220,02-10-1986,POINT (77.69862125274558 12.907025998008077),trf_32,Subramanyapura,,1.0,134.022,50.746,79964.0,695380.0,464638.0,2.0,133.62,409.97,ward_32,8861892729fffff,77.69862125274558,12.907025998008077
33,33,Bengaluru,Bangalore Urban,Bangalore East,Vikas Technical Park,220,06-03-2017,POINT (77.53428035290622 12.962808824947475),trf_33,Vikas Technical Park,,3.0,0.023,0.006,29.0,74.0,20.0,0.0,84.28,1785.34,ward_33,8860145a35fffff,77.53428035290622,12.962808824947475
34,34,Bengaluru,Bangalore Urban,Bangalore North,Vrushabhavathi Valley,220,04-03-2009,POINT (77.49227726749243 13.040659094226212),trf_34,Vrushabhavathi Valley,,3.0,0.267,0.129,946.0,1445.0,800.0,0.0,110.41,872.25,ward_34,8860145989fffff,77.49227726749243,13.040659094226212
35,35,Bengaluru,Bangalore Urban,Anekal,Yarandanahalli,220,24-02-1999,POINT (77.47236519310394 13.096066080980155),trf_35,Yarandanahalli,,3.0,0.766,0.234,3991.0,5658.0,3289.0,1.0,4.49,537.35,ward_35,8860144b6bfffff,77.47236519310394,13.096066080980155
36,36,Bengaluru,Bangalore Urban,Bangalore North,Yelahanka(DG Plant),220,28-12-2015,POINT (77.681673430789 12.859614704460252),trf_36,Yelahanka(DG Plant),,3.0,0.265,0.081,1328.0,3143.0,669.0,0.0,54.46,36.78,ward_36,886189275bfffff,77.681673430789,12.859614704460252
37,37,Bengaluru,Bangalore Urban,Bangalore North,A' Station,66,01-07-1920,POINT (77.45165663513708 13.04463842853645),trf_37,A' Station,,3.0,6.189,2.51,20579.0,54852.0,24649.0,0.0,2.2,273.77,ward_37,8860144a69fffff,77.45165663513708,13.04463842853645
38,38,Bengaluru,Bangalore Urban,Bangalore North,Abbigere,66,24-03-2011,POINT (77.66205720315429 13.018702150412295),trf_38,Abbigere,,3.0,0.601,0.391,2398.0,2752.0,2638.0,0.0,76.63,1037.84,ward_38,8861892c59fffff,77.66205720315429,13.018702150412295
39,39,Bengaluru,Kolar,Srinivaspur,Addagal,66,15-08-1999,POINT (77.68138110400578 12.822213395520228),trf_39,Addagal,,1.0,7.642,2.003,27656.0,39801.0,14280.0,0.0,71.13,1438.09,ward_39,886189264dfffff,77.68138110400578,12.822213395520228
40,40,Bengaluru,Bangalore Urban,Bangalore South,Adugodi,66,19-08-1964,POINT (77.55753971856328 12.83476071785754),trf_40,Adugodi,,3.0,0.481,0.336,2704.0,4614.0,496.0,0.0,52.45,1190.16,ward_40,886014536bfffff,77.55753971856328,12.83476071785754
41,41,Bengaluru,Ramanagar,Magadi,Agalakote Hulikatte,66,26-12-2007,POINT (77.70893102776267 12.986989438048267),trf_41,Agalakote Hulikatte,,1.0,0.601,0.271,2780.0,2380.0,217.0,1.0,137.68,869.65,ward_41,8861892e45fffff,77.70893102776267,12.986989438048267
42,42,Bengaluru,Ramanagar,Channapatna,Akkurmole,66,16-12-1994,POINT (77.5492694074558 12.819067505085808),trf_42,Akkurmole,,3.0,0.801,0.578,1308.0,6658.0,1388.0,0.0,183.46,273.64,ward_42,8860145343fffff,77.5492694074558,12.819067505085808
43,43,Bengaluru,Ramanagar,Kanakapura,Allimaranahalli,66,22-11-2016,POINT (77.5432946965147 12.897554996608024),trf_43,Allimaranahalli,,3.0,0.193,0.117,1011.0,1851.0,747.0,1.0,169.84,499.34,ward_43,886014516dfffff,77.5432946965147,12.897554996608024
44,44,Bengaluru,Bangalore Urban,Bangalore North,Alur,66,31-08-2017,POINT (77.66888185350142 12.991267241406565),trf_44,Alur,,3.0,0.988,0.897,234.0,9238.0,4388.0,0.0,113.59,1830.98,ward_44,8861892e17fffff,77.66888185350142,12.991267241406565
45,45,Bengaluru,Bangalore Urban,Bangalore East,Amarajyoti,66,30-03-2001,POINT (77.7161638227729 12.941664477548585),trf_45,Amarajyoti,,1.0,0.304,0.272,1771.0,3496.0,692.0,2.0,165.78,74.02,ward_45,8861892083fffff,77.7161638227729,12.941664477548585
46,46,Bengaluru,Kolar,Bangarpet,Andersonpet,66,10-07-2000,POINT (77.4858782737815 13.013973436166898),trf_46,Andersonpet,,3.0,0.129,0.033,539.0,782.0,449.0,0.0,63.06,1078.98,ward_46,88601459d9fffff,77.4858782737815,13.013973436166898
47,47,Bengaluru,Bangalore Urban,Anekal,Anekal,66,28-05-2004,POINT (77.67823551458507 12.968383159270848),trf_47,Anekal,,3.0,0.63,0.545,2328.0,3211.0,74.0,1.0,174.94,1057.87,ward_47,8861892e53fffff,77.67823551458507,12.968383159270848
48,48,Bengaluru,Bangalore Urban,Bangalore South,Anjanapura,66,29-11-2008,POINT (77.68129015398637 12.948138678909318),trf_48,Anjanapura,,3.0,0.998,0.462,4594.0,6604.0,2299.0,1.0,196.82,1536.55,ward_48,8861892561fffff,77.68129015398637,12.948138678909318
49,49,Bengaluru,Bangalore Rural,DB pura,Apparel park,66,03-11-2010,POINT (77.6068198488146 12.928262305507564),trf_49,Apparel park,,3.0,0.74,0.281,491.0,4582.0,1020.0,0.0,46.72,84.19,ward_49,88618925c3fffff,77.6068198488146,12.928262305507564
50,50,Bengaluru,Bangalore Urban,Bangalore South,Arehalli,66,04-11-1999,POINT (77.45762573802322 12.832367428097992),trf_50,Arehalli,,1.0,0.433,0.211,1766.0,2150.0,1974.0,1.0,83.52,1758.24,ward_50,8860145017fffff,77.45762573802322,12.832367428097992
51,51,Bengaluru,Bangalore Urban,Anekal,Attibele,66,27-07-2007,POINT (77.45942875570603 12.990923123379135),trf_51,Attibele,,3.0,0.617,0.201,3669.0,3137.0,2792.0,1.0,102.54,461.34,ward_51,8860145889fffff,77.45942875570603,12.990923123379135
52,52,Bengaluru,Bangalore Urban,Bangalore South,Austin Town,66,02-12-1995,POINT (77.5443067943229 12.952571207349411),trf_52,Austin Town,,1.0,0.195,0.153,410.0,687.0,907.0,3.0,79.25,1516.48,ward_52,8860145a2bfffff,77.5443067943229,12.952571207349411
53,53,Bengaluru,Kolar,Mulbagal,Avani (Kashipura),66,27-09-2007,POINT (77.72226994217783 12.874787668744663),trf_53,Avani (Kashipura),,3.0,8.342,3.073,11203.0,65341.0,23742.0,0.0,18.3,1754.92,ward_53,886189229bfffff,77.72226994217783,12.874787668744663
54,54,Bengaluru,Bangalore Urban,Bangalore East,B' Station,66,18-12-1995,POINT (77.5731148769107 13.026665341562914),trf_54,B' Station,,3.0,8.999,8.25,46550.0,92561.0,28303.0,0.0,17.4,816.91,ward_54,8860145b27fffff,77.5731148769107,13.026665341562914
55,55,Bengaluru,CB Pura,Bagepalli,Bagepalli,66,01-01-1964,POINT (77.5186394496475 12.823093972948639),trf_55,Bagepalli,,3.0,0.726,0.415,353.0,3617.0,2381.0,0.0,170.24,990.29,ward_55,886014531bfffff,77.5186394496475,12.823093972948639
56,56,Bengaluru,Bangalore Urban,Bangalore South,Bagmane Tech Park,66,22-12-2005,POINT (77.53692543587414 12.848366386176203),trf_56,Bagmane Tech Park,,3.0,0.826,0.381,3360.0,6684.0,1059.0,2.0,170.12,1734.59,ward_56,8860145307fffff,77.53692543587414,12.848366386176203
57,57,Bengaluru,Kolar,Mulbagal,Bairakur,66,07-10-2013,POINT (77.72890929570278 13.042436113869325),trf_57,Bairakur,,3.0,0.7,0.497,2598.0,6842.0,533.0,2.0,165.16,257.74,ward_57,8861892f0dfffff,77.72890929570278,13.042436113869325
58,58,Bengaluru,Bangalore Urban,Bangalore South,Banashankari,66,24-01-1987,POINT (77.64002112695313 13.061438177056315),trf_58,Banashankari,,3.0,0.169,0.137,844.0,1279.0,5.0,0.0,123.39,1962.37,ward_58,8861892c33fffff,77.64002112695313,13.061438177056315
59,59,Bengaluru,Bangalore Urban,Bangalore East,Banaswadi.,66,01-05-1989,POINT (77.69110162306974 12.85597101766581),trf_59,Banaswadi.,,3.0,0.638,0.386,2985.0,2528.0,2331.0,0.0,192.6,683.74,ward_59,8861892759fffff,77.69110162306974,12.85597101766581
60,60,Bengaluru,Kolar,Bangarpet,Bangarpet,66,01-01-1991,POINT (77.717767699547 12.961802672574695),trf_60,Bangarpet,,3.0,0.111,0.1,458.0,401.0,160.0,1.0,116.43,691.77,ward_60,88618920a3fffff,77.717767699547,12.961802672574695
61,61,Bengaluru,Bangalore Urban,Bangalore South,Bannergatta Road,66,12-03-2003,POINT (77.69223204654922 13.068827389977049),trf_61,Bannergatta Road,,3.0,8.844,8.226,51413.0,86201.0,5522.0,1.0,4.42,647.22,ward_61,8861892d59fffff,77.69223204654922,13.068827389977049
62,62,Bengaluru,Bangalore Urban,Bangalore North,"Bengaluru InternationalExhibition center (BIEC)",66,31-03-2018,POINT (77.54540104249156 12.833015577358303),trf_62,"Bengaluru InternationalExhibition center (BIEC)",,3.0,0.686,0.367,1126.0,8214.0,1403.0,0.0,32.72,1589.62,ward_62,8860145309fffff,77.54540104249156,12.833015577358303
63,63,Bengaluru,Ramanagar,Channapatna,Bevoor,66,05-08-2006,POINT (77.51838054876258 12.928132336587877),trf_63,Bevoor,,3.0,0.092,0.065,361.0,502.0,420.0,0.0,86.47,1887.23,ward_63,8860145a1bfffff,77.51838054876258,12.928132336587877
64,64,Bengaluru,Ramanagar,Ramanagara,Bidadi,66,29-10-1998,POINT (77.69540442977674 13.058219174976903),trf_64,Bidadi,,3.0,0.404,0.164,2385.0,2700.0,1734.0,0.0,42.62,62.27,ward_64,8861892f33fffff,77.69540442977674,13.058219174976903
65,65,Bengaluru,Ramanagar,Kanakapura,"Bijjahalli(Arendappanahalli)",66,26-10-2017,POINT (77.45208563915936 12.95322419077327),trf_65,"Bijjahalli(Arendappanahalli)",,3.0,0.866,0.481,5031.0,4044.0,3611.0,1.0,168.96,1522.05,ward_65,8860144365fffff,77.45208563915936,12.95322419077327
66,66,Bengaluru,Bangalore Urban,Bangalore South,BMTC,66,26-02-2004,POINT (77.57522330094463 12.86663234314122),trf_66,BMTC,,3.0,1.293,1.152,4784.0,13148.0,2989.0,0.0,25.04,1371.13,ward_66,88618924ddfffff,77.57522330094463,12.86663234314122
67,67,Bengaluru,Bangalore Urban,Anekal,Bommasandra_IA,66,25-01-2014,POINT (77.48595961020011 12.901284551421089),trf_67,Bommasandra_IA,,3.0,0.497,0.123,1735.0,2694.0,1903.0,0.0,91.04,23.24,ward_67,8860145133fffff,77.48595961020011,12.901284551421089
68,68,Bengaluru,Bangalore Urban,Bangalore North,Brigade Gateway,66,15-10-2010,POINT (77.73287291117376 12.896960879606226),trf_68,Brigade Gateway,,1.0,0.485,0.315,849.0,4489.0,2002.0,1.0,96.1,209.86,ward_68,88618922b9fffff,77.73287291117376,12.896960879606226
69,69,Bengaluru,Bangalore Urban,Bangalore North,Brindavan,66,16-11-1995,POINT (77.60563718652301 13.010905687668552),trf_69,Brindavan,,3.0,0.151,0.087,560.0,1408.0,406.0,0.0,65.29,1035.42,ward_69,8861892eb3fffff,77.60563718652301,13.010905687668552
70,70,Bengaluru,Bangalore Urban,Bangalore South,BTM 4th Phase,66,28-09-2008,POINT (77.55908888071379 13.091534624816289),trf_70,BTM 4th Phase,,1.0,0.043,0.011,102.0,180.0,117.0,1.0,40.03,334.97,ward_70,886016961dfffff,77.55908888071379,13.091534624816289
71,71,Bengaluru,Bangalore Urban,Bangalore North,Budigere,66,19-03-2009,POINT (77.73873418848264 12.87553468874761),trf_71,Budigere,,1.0,0.709,0.159,3983.0,2459.0,1842.0,2.0,160.35,678.9,ward_71,88618922d7fffff,77.73873418848264,12.87553468874761
72,72,Bengaluru,Kolar,Bangarpet,Budikote,66,29-10-2009,POINT (77.59917455176772 12.890263492945031),trf_72,Budikote,,3.0,9.053,5.529,44394.0,64013.0,27966.0,0.0,146.32,163.26,ward_72,88618924e9fffff,77.59917455176772,12.890263492945031
73,73,Bengaluru,Bangalore Urban,Bangalore North,Byadarahalli,66,31-05-2006,POINT (77.53545214831324 12.811066084206361),trf_73,Byadarahalli,,1.0,0.168,0.143,221.0,1980.0,272.0,0.0,157.94,1317.42,ward_73,8860145351fffff,77.53545214831324,12.811066084206361
74,74,Bengaluru,Bangalore Urban,Bangalore East,C' Station,66,01-08-1999,POINT (77.63286930019397 12.950803706968658),trf_74,C' Station,,3.0,0.722,0.268,4316.0,8500.0,2254.0,0.0,136.05,144.4,ward_74,88618925edfffff,77.63286930019397,12.950803706968658
75,75,Bengaluru,CB Pura,CB Pura,CB Pura  I/A,66,04-12-1998,POINT (77.465443625375 12.883593939270984),trf_75,CB Pura  I/A,,1.0,0.468,0.398,2042.0,4532.0,956.0,0.0,74.21,1975.3,ward_75,88601451c7fffff,77.465443625375,12.883593939270984
76,76,Bengaluru,CB Pura,CB Pura,CB Pura (U),66,30-08-1979,POINT (77.72247976579 12.871868567200092),trf_76,CB Pura (U),,1.0,0.583,0.308,2537.0,4303.0,2444.0,1.0,55.37,1184.7,ward_76,886189229bfffff,77.72247976579,12.871868567200092
77,77,Bengaluru,CB Pura,Bagepalli,Chakavelu,66,14-07-2003,POINT (77.49346846162737 12.94683582808327),trf_77,Chakavelu,,3.0,0.627,0.422,2758.0,2623.0,2154.0,1.0,47.51,1942.79,ward_77,8860145ae3fffff,77.49346846162737,12.94683582808327
78,78,Bengaluru,Bangalore Urban,Anekal,Chandapura,66,19-02-1983,POINT (77.74569513623318 12.872616581453451),trf_78,Chandapura,,1.0,0.497,0.192,2597.0,3483.0,1228.0,0.0,118.59,327.05,ward_78,88618922d5fffff,77.74569513623318,12.872616581453451
79,79,Bengaluru,Bangalore Urban,Bangalore North,Chandra Layout,66,07-12-1999,POINT (77.65164066422176 13.028485884598615),trf_79,Chandra Layout,,3.0,0.266,0.184,519.0,2650.0,167.0,1.0,47.21,146.99,ward_79,8861892c57fffff,77.65164066422176,13.028485884598615
80,80,Bengaluru,Ramanagar,Magadi,"Chandrappa Circle(Donnenahalli)",66,19-02-2010,POINT (77.52129126319772 13.018464904583558),trf_80,"Chandrappa Circle(Donnenahalli)",,1.0,0.344,0.283,889.0,1802.0,1019.0,1.0,33.52,73.34,ward_80,8860145821fffff,77.52129126319772,13.018464904583558
81,81,Bengaluru,Ramanagar,Channapatna,Channapatna,66,18-06-1961,POINT (77.56033493981577 12.989691749178073),trf_81,Channapatna,,3.0,0.48,0.4,2320.0,3969.0,2000.0,0.0,22.38,539.5,ward_81,8860145b1dfffff,77.56033493981577,12.989691749178073
82,82,Bengaluru,Ramanagar,Kanakapura,Chatra(Rayasandra),66,28-12-2016,POINT (77.64005891322827 12.960732405222428),trf_82,Chatra(Rayasandra),,1.0,0.937,0.215,687.0,6624.0,4200.0,0.0,101.45,83.15,ward_82,8861892537fffff,77.64005891322827,12.960732405222428
83,83,Bengaluru,CB Pura,Shidlagatta,Cheemangala,66,03-03-2003,POINT (77.47708693101633 13.050590748676772),trf_83,Cheemangala,,1.0,0.965,0.197,5511.0,8446.0,4020.0,0.0,103.12,977.69,ward_83,8860145983fffff,77.47708693101633,13.050590748676772
84,84,Bengaluru,CB Pura,Bagepalli,Chelur,66,29-03-2013,POINT (77.54623401949152 12.855955553119957),trf_84,Chelur,,3.0,1.27,0.547,5370.0,6117.0,4105.0,1.0,134.52,887.5,ward_84,8860145321fffff,77.54623401949152,12.855955553119957
85,85,Bengaluru,Ramanagar,Ramanagara,Chikkagangawadi,66,28-08-2010,POINT (77.46223254246644 12.977267882956472),trf_85,Chikkagangawadi,,3.0,7.234,5.994,41000.0,66186.0,17263.0,1.0,114.12,60.77,ward_85,88601458c3fffff,77.46223254246644,12.977267882956472
86,86,Bengaluru,Ramanagar,Kanakapura,Chikkenahalli,66,08-07-2002,POINT (77.65326930855268 12.804976348678357),trf_86,Chikkenahalli,,3.0,0.68,0.246,2688.0,4450.0,2126.0,0.0,131.57,1998.83,ward_86,886189265bfffff,77.65326930855268,12.804976348678357
87,87,Bengaluru,CB Pura,Chintamani,Chintamani,66,05-05-1987,POINT (77.60362791748979 12.867948732559382),trf_87,Chintamani,,1.0,0.413,0.352,1939.0,3347.0,1464.0,1.0,65.41,1335.19,ward_87,88618926a7fffff,77.60362791748979,12.867948732559382
88,88,Bengaluru,Bangalore Rural,Nelamangala,Dabaspet,66,31-03-2009,POINT (77.64355183712284 12.852309928701498),trf_88,Dabaspet,,3.0,0.8,0.421,3926.0,3266.0,2091.0,0.0,64.92,732.92,ward_88,8861892631fffff,77.64355183712284,12.852309928701498
89,89,Bengaluru,Kolar,Srinivaspur,Dalasanur,66,19-07-2007,POINT (77.65728132143074 12.916020603890162),trf_89,Dalasanur,,3.0,0.395,0.212,563.0,2512.0,431.0,0.0,120.69,1336.43,ward_89,8861892551fffff,77.65728132143074,12.916020603890162
90,90,Bengaluru,Ramanagar,Channapatna,Dashavara,66,14-11-2017,POINT (77.73101899662102 12.841256283243798),trf_90,Dashavara,,3.0,0.386,0.327,1202.0,2823.0,48.0,0.0,76.04,797.65,ward_90,88618935e3fffff,77.73101899662102,12.841256283243798
91,91,Bengaluru,Bangalore Rural,DB pura,D'Cross (D.B.Pura),66,19-06-1961,POINT (77.55231990531507 12.834042056372176),trf_91,D'Cross (D.B.Pura),,3.0,111.384,73.06,511175.0,1149134.0,383940.0,1.0,39.16,15.13,ward_91,886014530dfffff,77.55231990531507,12.834042056372176
92,92,Bengaluru,Bangalore Rural,Hosakote,Devanagondi/Kalkunte,66,14-12-2012,POINT (77.72740808548357 13.063201806014295),trf_92,Devanagondi/Kalkunte,,3.0,0.251,0.225,91.0,2864.0,424.0,0.0,97.17,513.55,ward_92,8861892f29fffff,77.72740808548357,13.063201806014295
93,93,Bengaluru,Bangalore Rural,Devanahalli,Devanahalli,66,01-01-1972,POINT (77.52738248831454 12.997995213810254),trf_93,Devanahalli,,3.0,0.805,0.487,1504.0,6837.0,2767.0,0.0,82.71,243.77,ward_93,8860145863fffff,77.52738248831454,12.997995213810254
94,94,Bengaluru,Bangalore Urban,Bangalore South,Devarabisanahalli,66,31-01-2007,POINT (77.69516666006037 12.966560243479838),trf_94,Devarabisanahalli,,1.0,0.19,0.113,808.0,753.0,517.0,0.0,192.59,967.09,ward_94,8861892e5dfffff,77.69516666006037,12.966560243479838
95,95,Bengaluru,CB Pura,Gowribidanur,Dharinayakanapalya,66,31-03-2007,POINT (77.60889517350681 12.872555687270136),trf_95,Dharinayakanapalya,,3.0,0.053,0.036,303.0,446.0,208.0,1.0,42.41,1221.96,ward_95,886189241bfffff,77.60889517350681,12.872555687270136
96,96,Bengaluru,CB Pura,Shidlagatta,Dibburahally,66,18-09-1992,POINT (77.47793083034178 13.069164727385997),trf_96,Dibburahally,,3.0,0.901,0.419,1281.0,9032.0,1188.0,1.0,133.51,191.07,ward_96,88601459b5fffff,77.47793083034178,13.069164727385997
97,97,Bengaluru,Bangalore Rural,DB pura,Doddabelavangala,66,04-01-1996,POINT (77.720125417149 12.98993043718198),trf_97,Doddabelavangala,,3.0,0.591,0.193,2613.0,6362.0,615.0,0.0,4.73,1283.94,ward_97,8861892e69fffff,77.720125417149,12.98993043718198
98,98,Bengaluru,Kolar,Kolar,"Doddakari(Bethamangala)",66,21-09-2017,POINT (77.55170893731461 12.904762872383799),trf_98,"Doddakari(Bethamangala)",,3.0,0.24,0.118,856.0,1793.0,1138.0,0.0,139.03,808.64,ward_98,88618924b1fffff,77.55170893731461,12.904762872383799
99,99,Bengaluru,Ramanagar,Kanakapura,Doddalahalli,66,15-08-2015,POINT (77.66778670366108 13.069133077985773),trf_99,Doddalahalli,,3.0,0.696,0.657,536.0,2740.0,2420.0,0.0,54.83,158.84,ward_99,8861892c21fffff,77.66778670366108,13.069133077985773
100,100,Bengaluru,Bangalore Urban,Anekal,Dommasandra,66,30-04-1992,POINT (77.71612592727953 13.033962663757286),trf_100,Dommasandra,,1.0,0.2,0.089,272.0,1239.0,67.0,0.0,13.52,1600.71,ward_100,8861892f0bfffff,77.71612592727953,13.033962663757286
101,101,Bengaluru,Bangalore Urban,Bangalore South,Electronic City,66,26-07-1997,POINT (77.6426094938463 12.825241989498515),trf_101,Electronic City,,3.0,0.881,0.606,2817.0,5215.0,1408.0,2.0,111.56,1461.3,ward_1,8861892619fffff,77.6426094938463,12.825241989498515
102,102,Bengaluru,Bangalore Urban,Bangalore South,"Electronic City (SectionII Phase II)",66,15-12-2007,POINT (77.49848861422839 13.069566256558124),trf_102,"Electronic City (SectionII Phase II)",,3.0,6.061,5.565,6375.0,55822.0,5846.0,0.0,19.34,900.74,ward_2,88601459adfffff,77.49848861422839,13.069566256558124
103,103,Bengaluru,Bangalore Urban,Bangalore South,"Electronic city Sec I PhII",66,29-06-2007,POINT (77.63192871789788 12.80275911548499),trf_103,"Electronic city Sec I PhII",,3.0,0.668,0.532,3716.0,3415.0,1280.0,0.0,198.5,1854.0,ward_3,886014c921fffff,77.63192871789788,12.80275911548499
104,104,Bengaluru,Bangalore Urban,Bangalore South,Elite Promonede,66,29-07-2009,POINT (77.48044146285982 12.999050530732417),trf_104,Elite Promonede,,3.0,0.526,0.351,281.0,5153.0,322.0,2.0,7.23,606.26,ward_4,88601458e1fffff,77.48044146285982,12.999050530732417
105,105,Bengaluru,Bangalore Urban,Bangalore East,"EPIP, White field",66,08-02-2006,POINT (77.45151847515388 12.84824241542525),trf_105,"EPIP, White field",,3.0,0.097,0.088,322.0,558.0,185.0,0.0,120.12,1031.36,ward_5,88601450e5fffff,77.45151847515388,12.84824241542525
106,106,Bengaluru,Kolar,Kolar,Ganjikunte,66,27-09-2008,POINT (77.61462013680998 13.007568559307808),trf_106,Ganjikunte,,3.0,0.992,0.832,1241.0,11284.0,554.0,1.0,175.59,1736.11,ward_6,8861892eb1fffff,77.61462013680998,13.007568559307808
107,107,Bengaluru,Ramanagar,Kanakapura,Godur (Tattakere),66,27-03-2018,POINT (77.64558837785079 12.867280792838168),trf_107,Godur (Tattakere),,3.0,0.312,0.081,754.0,1423.0,1041.0,0.0,195.12,1281.94,ward_7,886189244bfffff,77.64558837785079,12.867280792838168
108,108,Bengaluru,Bangalore Urban,Bangalore North,Gokula,66,16-12-1979,POINT (77.66365376640427 12.871174726249041),trf_108,Gokula,,3.0,8.758,7.813,25594.0,74060.0,32151.0,0.0,100.51,797.33,ward_8,886189271bfffff,77.66365376640427,12.871174726249041
109,109,Bengaluru,Bangalore Urban,Bangalore South,Golf Links,66,31-03-2009,POINT (77.54761990944779 13.023947421535407),trf_109,Golf Links,,1.0,0.077,0.017,62.0,898.0,203.0,1.0,62.36,1012.28,ward_9,886014595dfffff,77.54761990944779,13.023947421535407
110,110,Bengaluru,Bangalore Rural,Nelamangala,Gudemaranahalli,66,20-01-2011,POINT (77.64488986971416 13.054767023148253),trf_110,Gudemaranahalli,,3.0,6.767,2.45,25157.0,59900.0,4938.0,0.0,156.15,919.6,ward_10,8861892c3bfffff,77.64488986971416,13.054767023148253
111,111,Bengaluru,CB Pura,Gudibande,Gudibande,66,25-08-1995,POINT (77.6472838676901 12.970492581000642),trf_111,Gudibande,,1.0,0.067,0.048,395.0,345.0,46.0,0.0,60.66,202.09,ward_11,8861892ecbfffff,77.6472838676901,12.970492581000642
112,112,Bengaluru,Bangalore Rural,DB pura,Gundamgere,66,19-12-2009,POINT (77.47810243034843 12.91031474091783),trf_112,Gundamgere,,3.0,5.585,5.292,27276.0,47679.0,8210.0,1.0,85.22,261.42,ward_12,8860145adbfffff,77.47810243034843,12.91031474091783
113,113,Bengaluru,CB Pura,Gowribidanur,Gundlu Kothur,66,28-02-2008,POINT (77.52956071030452 12.873196893013725),trf_113,Gundlu Kothur,,3.0,0.203,0.097,504.0,2121.0,715.0,1.0,83.23,962.69,ward_13,8860145141fffff,77.52956071030452,12.873196893013725
114,114,Bengaluru,Ramanagar,Kanakapura,Guruvinapura,66,20-06-2018,POINT (77.74190316642573 12.917929317400029),trf_114,Guruvinapura,,1.0,0.763,0.231,2451.0,3767.0,44.0,0.0,195.17,1603.07,ward_14,88618920c9fffff,77.74190316642573,12.917929317400029
115,115,Bengaluru,Kolar,Mulbagal,H Gollahalli,66,19-09-2007,POINT (77.71761396655313 12.98934158779918),trf_115,H Gollahalli,,3.0,0.119,0.073,324.0,1261.0,56.0,0.0,30.01,649.35,ward_15,8861892e69fffff,77.71761396655313,12.98934158779918
116,116,Bengaluru,Bangalore Urban,Bangalore East,H.A.L.,66,01-01-1967,POINT (77.68844339106249 12.950791127931558),trf_116,H.A.L.,,3.0,0.382,0.189,1053.0,3845.0,1636.0,2.0,137.63,875.21,ward_16,886189256dfffff,77.68844339106249,12.950791127931558
117,117,Bengaluru,Ramanagar,Kanakapura,Hanumanthanagar,66,26-02-2010,POINT (77.62307116538791 12.94775530814566),trf_117,Hanumanthanagar,,3.0,0.048,0.042,133.0,419.0,152.0,1.0,122.79,133.3,ward_17,88618925e1fffff,77.62307116538791,12.94775530814566
118,118,Bengaluru,Ramanagar,Kanakapura,Harobele,66,16-09-1994,POINT (77.50857289633942 13.01673563457845),trf_118,Harobele,,3.0,7.637,4.461,31169.0,25775.0,3108.0,1.0,14.25,24.22,ward_18,8860145823fffff,77.50857289633942,13.01673563457845
119,119,Bengaluru,Bangalore Urban,Bangalore East,HBR Layout,66,31-01-2007,POINT (77.53423170873226 12.807294789929436),trf_119,HBR Layout,,3.0,0.36,0.152,755.0,3590.0,1143.0,0.0,34.82,196.79,ward_19,886014535bfffff,77.53423170873226,12.807294789929436
120,120,Bengaluru,Bangalore Urban,Bangalore North,Hebbal,66,22-06-1996,POINT (77.64364168877215 12.853133203822114),trf_120,Hebbal,,3.0,0.272,0.059,134.0,3185.0,386.0,1.0,76.39,411.37,ward_20,8861892631fffff,77.64364168877215,12.853133203822114
121,121,Bengaluru,Ramanagar,Ramanagara,Hejjala,66,04-11-2014,POINT (77.73213757530587 13.086178573100776),trf_121,Hejjala,,1.0,0.777,0.531,2472.0,2624.0,3612.0,1.0,195.99,1203.76,ward_21,8861892891fffff,77.73213757530587,13.086178573100776
122,122,Bengaluru,Bangalore Urban,Bangalore East,Hennur Road,66,15-03-2016,POINT (77.72445931706613 12.911047610076634),trf_122,Hennur Road,,3.0,0.814,0.564,626.0,4920.0,3626.0,0.0,74.43,864.15,ward_22,88618922b7fffff,77.72445931706613,12.911047610076634
123,123,Bengaluru,Ramanagar,Kanakapura,Honniganahally,66,17-08-2015,POINT (77.45463698495867 13.078495568776317),trf_123,Honniganahally,,3.0,0.944,0.359,688.0,4510.0,4019.0,1.0,163.19,1722.74,ward_23,8860144b51fffff,77.45463698495867,13.078495568776317
124,124,Bengaluru,Bangalore Urban,Bangalore East,Hoody.,66,15-01-1979,POINT (77.5784552444952 13.089996445713101),trf_124,Hoody.,,3.0,0.26,0.199,718.0,2750.0,909.0,1.0,35.49,1090.05,ward_24,8860169609fffff,77.5784552444952,13.089996445713101
125,125,Bengaluru,Ramanagar,Magadi,"Hosapalya circle(Shivanasandra)",66,29-08-2018,POINT (77.73908599312678 13.055902836640207),trf_125,"Hosapalya circle(Shivanasandra)",,3.0,0.053,0.017,42.0,505.0,208.0,0.0,101.17,1681.41,ward_25,8861892f67fffff,77.73908599312678,13.055902836640207
126,126,Bengaluru,Bangalore Rural,Hosakote,Hoskote,66,01-09-1964,POINT (77.53833466762087 12.915529318580578),trf_126,Hoskote,,3.0,0.594,0.345,1060.0,4803.0,1964.0,1.0,152.22,320.14,ward_26,8860145a51fffff,77.53833466762087,12.915529318580578
127,127,Bengaluru,CB Pura,Gowribidanur,Hosur(Ramapura),66,10-03-2003,POINT (77.70534100145505 12.895076601546883),trf_127,Hosur(Ramapura),,3.0,3.22,2.398,19162.0,12534.0,6205.0,1.0,111.02,1466.14,ward_27,8861892763fffff,77.70534100145505,12.895076601546883
128,128,Bengaluru,Bangalore Urban,Bangalore South,HSR  Layout,66,26-01-1998,POINT (77.50084782400583 12.967040378737504),trf_128,HSR  Layout,,3.0,4.198,3.307,13960.0,12792.0,15334.0,0.0,149.15,404.96,ward_28,8860145853fffff,77.50084782400583,12.967040378737504
129,129,Bengaluru,Bengaluru Urban,Anekal,Hulimangala*,66,30-01-2019,POINT (77.73084643224823 13.008808939002492),trf_129,Hulimangala*,,3.0,0.334,0.104,612.0,3637.0,1597.0,0.0,89.72,1444.14,ward_29,88618921b1fffff,77.73084643224823,13.008808939002492
130,130,Bengaluru,Ramanagar,Magadi,Hullenahalli (Ellapura),66,31-12-2008,POINT (77.6210183510268 12.829152948131231),trf_130,Hullenahalli (Ellapura),,3.0,0.398,0.203,1661.0,1206.0,1184.0,0.0,158.84,185.98,ward_30,88618926c5fffff,77.6210183510268,12.829152948131231
131,131,Bengaluru,Ramanagar,Kanakapura,Hunasenahalli,66,21-06-2010,POINT (77.63450216800975 13.097016155031278),trf_131,Hunasenahalli,,3.0,0.646,0.161,2248.0,5202.0,1738.0,0.0,135.29,1609.98,ward_31,8861892d81fffff,77.63450216800975,13.097016155031278
132,132,Bengaluru,Kolar,Kolar,Huttur(Kembodi),66,05-12-2007,POINT (77.49202520457096 12.955498895709121),trf_132,Huttur(Kembodi),,3.0,0.503,0.13,177.0,3022.0,1895.0,1.0,103.45,880.4,ward_32,8860145aa9fffff,77.49202520457096,12.955498895709121
133,133,Bengaluru,Ramanagar,Kanakapura,I.Gollahalli (Hukunda),66,17-08-2015,POINT (77.71321192157839 13.02223058532626),trf_133,I.Gollahalli (Hukunda),,1.0,0.44,0.117,582.0,3689.0,1554.0,2.0,84.25,1272.35,ward_33,8861892f53fffff,77.71321192157839,13.02223058532626
134,134,Bengaluru,Bangalore Urban,Bangalore East,I.T.I.,66,26-05-1971,POINT (77.65910472229858 13.010745225196132),trf_134,I.T.I.,,3.0,4.689,3.891,10799.0,38201.0,13229.0,0.0,72.45,669.02,ward_34,8861892ee5fffff,77.65910472229858,13.010745225196132
135,135,Bengaluru,Ramanagar,Channapatna,Iggalur,66,18-04-1998,POINT (77.55784734536593 12.888077553279349),trf_135,Iggalur,,1.0,8.485,3.435,26375.0,48267.0,38312.0,0.0,85.93,1745.46,ward_35,8861892495fffff,77.55784734536593,12.888077553279349
136,136,Bengaluru,CB Pura,Chintamani,Irgampalli,66,30-07-1983,POINT (77.69280834664356 13.043034018403754),trf_136,Irgampalli,,3.0,8.224,4.471,23832.0,34552.0,3182.0,1.0,87.37,1459.02,ward_36,8861892f17fffff,77.69280834664356,13.043034018403754
137,137,Bengaluru,Bangalore Urban,Bangalore South,ISKCON,66,14-07-2016,POINT (77.71012169557403 13.073972165766941),trf_137,ISKCON,,3.0,6.492,1.957,29268.0,57861.0,29810.0,0.0,11.41,564.37,ward_37,8861892d49fffff,77.71012169557403,13.073972165766941
138,138,Bengaluru,Bangalore Urban,Bangalore South,ISRO Layout(South),66,01-01-2007,POINT (77.60340271965828 12.95045488840616),trf_138,ISRO Layout(South),,3.0,0.907,0.351,1480.0,8920.0,1958.0,1.0,97.51,67.23,ward_38,8861892585fffff,77.60340271965828,12.95045488840616
139,139,Bengaluru,Kolar,Malur,Jadigenahalli,66,13-03-2009,POINT (77.68948855369003 12.994989179233329),trf_139,Jadigenahalli,,1.0,0.148,0.089,365.0,907.0,639.0,0.0,132.76,1926.79,ward_39,8861892e01fffff,77.68948855369003,12.994989179233329
140,140,Bengaluru,Ramanagar,Ramanagara,Jalamangala,66,10-02-2009,POINT (77.66059006317731 13.03873780083083),trf_140,Jalamangala,,3.0,0.062,0.032,97.0,594.0,292.0,0.0,130.83,396.2,ward_40,8861892c0bfffff,77.66059006317731,13.03873780083083
141,141,Bengaluru,CB Pura,Shidlagatta,Jangamkote,66,03-03-2017,POINT (77.71700160254527 12.90139854705546),trf_141,Jangamkote,,3.0,0.972,0.638,2038.0,3914.0,706.0,0.0,50.19,1701.23,ward_41,8861892765fffff,77.71700160254527,12.90139854705546
142,142,Bengaluru,Bangalore Urban,Bangalore South,Jayadeva,66,24-07-1996,POINT (77.56267488579198 12.82819458195226),trf_142,Jayadeva,,3.0,0.124,0.105,538.0,448.0,421.0,0.0,16.35,916.6,ward_42,8860145345fffff,77.56267488579198,12.82819458195226
143,143,Bengaluru,Bangalore Urban,Bangalore South,Jayanagar (GIS),66,13-11-2013,POINT (77.62348404229886 12.810782682139024),trf_143,Jayanagar (GIS),,3.0,9.511,7.965,38178.0,68105.0,18798.0,1.0,12.45,1025.01,ward_43,88618926c9fffff,77.62348404229886,12.810782682139024
144,144,Bengaluru,Bangalore Urban,Anekal,Jigani,66,14-08-1990,POINT (77.58967940543974 12.962793390412273),trf_144,Jigani,,3.0,0.061,0.048,74.0,325.0,48.0,0.0,151.35,1038.77,ward_44,88618925b5fffff,77.58967940543974,12.962793390412273
145,145,Bengaluru,Bangalore Urban,Anekal,"Jigani linkroad(Bommasandra)",66,28-02-2013,POINT (77.53596237563849 12.977249978170704),trf_145,"Jigani linkroad(Bommasandra)",,3.0,0.881,0.751,1262.0,6221.0,4165.0,1.0,13.04,927.86,ward_45,886014584dfffff,77.53596237563849,12.977249978170704
146,146,Bengaluru,CB Pura,Bagepalli,Julupalya,66,02-06-2009,POINT (77.45915007498172 12.811204456624765),trf_146,Julupalya,,3.0,0.503,0.14,1982.0,5231.0,918.0,2.0,104.67,574.28,ward_46,88601452a5fffff,77.45915007498172,12.811204456624765
147,147,Bengaluru,Bangalore Urban,Bangalore East,K & C Valley,66,10-12-1999,POINT (77.6967801681979 12.90805719242338),trf_147,K & C Valley,,3.0,0.638,0.509,1516.0,7168.0,1632.0,0.0,139.18,1586.52,ward_47,8861892721fffff,77.6967801681979,12.90805719242338
148,148,Bengaluru,Bangalore Urban,Bangalore East,"Kachamaranahalli(Varthur Road)",66,29-03-2014,POINT (77.48811815379557 12.956672978016442),trf_148,"Kachamaranahalli(Varthur Road)",,3.0,0.907,0.37,5352.0,3870.0,879.0,0.0,178.8,1308.59,ward_48,8860145aabfffff,77.48811815379557,12.956672978016442
149,149,Bengaluru,Bangalore Urban,Bangalore East,Kadabisanahalli,66,30-04-2007,POINT (77.68099806592959 12.864746308249053),trf_149,Kadabisanahalli,,1.0,0.619,0.163,3277.0,6334.0,1501.0,1.0,196.82,1335.84,ward_49,8861892753fffff,77.68099806592959,12.864746308249053
150,150,Bengaluru,Bangalore Urban,Bangalore East,Kadugodi,66,04-01-1997,POINT (77.6368671427457 12.825604239498132),trf_150,Kadugodi,,3.0,8.937,4.653,8699.0,27825.0,24012.0,0.0,143.87,1780.52,ward_50,8861892611fffff,77.6368671427457,12.825604239498132
151,151,Bengaluru,Kolar,Bangarpet,Kamasamudra,66,,POINT (77.46550451635059 12.959406389470445),trf_151,Kamasamudra,,1.0,0.196,0.165,963.0,1542.0,668.0,0.0,94.23,1643.27,ward_51,8860145ab1fffff,77.46550451635059,12.959406389470445
152,152,Bengaluru,Ramanagar,Kanakapura,Kanakapura,66,05-04-2003,POINT (77.61219053648303 12.991228970449463),trf_152,Kanakapura,,3.0,0.499,0.41,1004.0,2277.0,1705.0,1.0,47.97,283.94,ward_52,8861892e95fffff,77.61219053648303,12.991228970449463
153,153,Bengaluru,Bangalore Rural,DB pura,"Kanasawadi(Madhurai)",66,28-06-2007,POINT (77.6678274001168 13.09275562383876),trf_153,"Kanasawadi(Madhurai)",,3.0,0.751,0.517,2798.0,4635.0,3033.0,0.0,195.82,1268.28,ward_53,8861892d13fffff,77.6678274001168,13.09275562383876
154,154,Bengaluru,Bangalore Urban,Bangalore North,"Kanteerava_Stadium(GIS)",66,10-01-2014,POINT (77.60489010449037 12.896886941882373),trf_154,"Kanteerava_Stadium(GIS)",,1.0,0.332,0.237,139.0,1519.0,1364.0,0.0,167.41,558.55,ward_54,88618924edfffff,77.60489010449037,12.896886941882373
155,155,Bengaluru,Ramanagar,Ramanagara,"Kavanapura(Shivanahalli)",66,25-02-2010,POINT (77.68855585843062 12.881249675378623),trf_155,"Kavanapura(Shivanahalli)",,3.0,0.518,0.222,661.0,1709.0,756.0,2.0,153.21,1576.89,ward_55,886189270bfffff,77.68855585843062,12.881249675378623
156,156,Bengaluru,Ramanagar,Ramanagara,Kempanahalli (Bng),66,30-06-2008,POINT (77.58169142621169 12.82353691440268),trf_156,Kempanahalli (Bng),,3.0,0.908,0.638,3053.0,3631.0,1948.0,0.0,172.91,1093.3,ward_56,8861892699fffff,77.58169142621169,12.82353691440268
157,157,Bengaluru,Bangalore Urban,Bangalore North,Kengeri Satellite Town,66,17-04-2010,POINT (77.45760522302464 13.088794524403378),trf_157,Kengeri Satellite Town,,3.0,0.12,0.062,30.0,1159.0,529.0,0.0,171.67,584.44,ward_57,8860144b09fffff,77.45760522302464,13.088794524403378
158,158,Bengaluru,Kolar,Bangarpet,KGF,66,02-10-1969,POINT (77.70079403615367 13.008792261828109),trf_158,KGF,,3.0,0.807,0.172,4662.0,7699.0,1180.0,1.0,174.55,225.16,ward_58,8861892e29fffff,77.70079403615367,13.008792261828109
159,159,Bengaluru,Bangalore Urban,Bangalore North,KHB Colony,66,30-12-2002,POINT (77.57268588332428 12.851988296021254),trf_159,KHB Colony,,3.0,0.106,0.04,8.0,765.0,153.0,0.0,59.45,599.84,ward_59,88618926b3fffff,77.57268588332428,12.851988296021254
160,160,Bengaluru,Bangalore Urban,Bangalore South,Khoday's Glass Factory,66,25-05-2005,POINT (77.49693111280133 12.87507286944938),trf_160,Khoday's Glass Factory,,3.0,19.147,16.795,97910.0,172519.0,54520.0,1.0,15.79,479.02,ward_60,8860145119fffff,77.49693111280133,12.87507286944938
161,161,Bengaluru,Bangalore Urban,Bangalore North,Kodigehalli,66,17-01-2015,POINT (77.61476799941184 13.014378776810018),trf_161,Kodigehalli,,3.0,6.245,5.911,32063.0,48043.0,1908.0,1.0,22.99,187.71,ward_61,8861892eb7fffff,77.61476799941184,13.014378776810018
162,162,Bengaluru,CB Pura,Chintamani,Kodihalli,66,29-12-2006,POINT (77.64805921301532 12.883980169083783),trf_162,Kodihalli,,3.0,0.831,0.714,2851.0,6363.0,1717.0,0.0,86.92,1547.76,ward_62,886189246bfffff,77.64805921301532,12.883980169083783
163,163,Bengaluru,Ramanagar,Kanakapura,Kodihalli,66,02-03-2005,POINT (77.73645958419895 13.02136907500873),trf_163,Kodihalli,,3.0,0.449,0.294,1701.0,3738.0,1514.0,0.0,102.47,208.45,ward_63,8861892f4bfffff,77.73645958419895,13.02136907500873
164,164,Bengaluru,Kolar,Kolar,Kolar,66,21-08-2009,POINT (77.61630621575343 12.983516223870305),trf_164,Kolar,,3.0,0.656,0.599,2364.0,6358.0,1594.0,1.0,50.88,723.71,ward_64,8861892e9dfffff,77.61630621575343,12.983516223870305
165,165,Bengaluru,Bangalore Rural,Hosakote,Konadasapura,66,10-10-2012,POINT (77.57588001872834 12.874319296850347),trf_165,Konadasapura,,3.0,2.26,0.921,13174.0,13520.0,5229.0,0.0,122.16,561.37,ward_65,88618924d5fffff,77.57588001872834,12.874319296850347
166,166,Bengaluru,Bangalore Urban,Bangalore South,Koramangala,66,12-04-1996,POINT (77.55679180359537 13.02735383313931),trf_166,Koramangala,,3.0,0.015,0.003,20.0,50.0,8.0,0.0,160.52,1144.1,ward_66,886014594bfffff,77.55679180359537,13.02735383313931
167,167,Bengaluru,Ramanagar,Magadi,Kudur,66,23-09-1998,POINT (77.45431804658892 12.834821792152075),trf_167,Kudur,,3.0,0.932,0.464,487.0,7972.0,509.0,0.0,101.48,1748.45,ward_67,8860145017fffff,77.45431804658892,12.834821792152075
168,168,Bengaluru,Ramanagar,Ramanagara,Kumbalagodu,66,03-03-1994,POINT (77.46380079260653 12.812218640695692),trf_168,Kumbalagodu,,3.0,0.993,0.297,1637.0,6505.0,2011.0,0.0,181.52,1428.07,ward_68,88601452a5fffff,77.46380079260653,12.812218640695692
169,169,Bengaluru,Bangalore Rural,Devanahalli,Kundana,66,04-03-2013,POINT (77.70663817520331 13.011097357814007),trf_169,Kundana,,3.0,0.826,0.757,4070.0,2490.0,2523.0,0.0,51.52,119.05,ward_69,8861892e67fffff,77.70663817520331,13.011097357814007
170,170,Bengaluru,Ramanagar,Ramanagara,Kutagallu,66,14-10-2009,POINT (77.5922521487262 12.8293502481953),trf_170,Kutagallu,,3.0,0.123,0.06,337.0,778.0,71.0,0.0,150.24,142.02,ward_70,886189268bfffff,77.5922521487262,12.8293502481953
171,171,Bengaluru,Kolar,Kolar,Kyalanur,66,27-09-2007,POINT (77.59748476253505 12.94204153123417),trf_171,Kyalanur,,1.0,0.942,0.661,3836.0,5894.0,2684.0,0.0,127.22,1826.57,ward_71,8861892583fffff,77.59748476253505,12.94204153123417
172,172,Bengaluru,Kolar,Bangarpet,Kyasamballi,66,30-03-1996,POINT (77.501960560973 12.930155494771393),trf_172,Kyasamballi,,3.0,0.727,0.211,3937.0,2616.0,1863.0,0.0,2.34,844.07,ward_72,8860145ac1fffff,77.501960560973,12.930155494771393
173,173,Bengaluru,Bangalore Urban,Bangalore North,L R bande,66,26-07-2003,POINT (77.56955142031921 12.984755029415664),trf_173,L R bande,,3.0,0.581,0.135,429.0,4664.0,957.0,1.0,169.12,1384.99,ward_73,8860145b0bfffff,77.56955142031921,12.984755029415664
174,174,Bengaluru,Kolar,Malur,Lakkur,66,30-05-1995,POINT (77.6405280952603 12.813591202931613),trf_174,Lakkur,,3.0,0.283,0.122,1340.0,1986.0,1085.0,3.0,63.77,1164.4,ward_74,886014c925fffff,77.6405280952603,12.813591202931613
175,175,Bengaluru,Kolar,Srinivaspur,Lakshmipura,66,29-09-1996,POINT (77.56238378438795 12.98775797471427),trf_175,Lakshmipura,,3.0,0.709,0.508,1593.0,3192.0,1465.0,0.0,178.02,691.75,ward_75,8860145b1dfffff,77.56238378438795,12.98775797471427
176,176,Bengaluru,Bangalore Urban,Bangalore East,Leela Venture (Kodihalli),66,15-06-2001,POINT (77.60094087757403 13.056946952356496),trf_176,Leela Venture (Kodihalli),,1.0,6.812,4.616,13921.0,24833.0,13394.0,0.0,135.42,1211.56,ward_76,8861892c87fffff,77.60094087757403,13.056946952356496
177,177,Bengaluru,Ramanagar,Magadi,Magadi,66,10-03-1985,POINT (77.64760808948569 12.84888032812443),trf_177,Magadi,,3.0,0.988,0.534,4080.0,4214.0,2303.0,0.0,101.09,1928.03,ward_77,886189263dfffff,77.64760808948569,12.84888032812443
178,178,Bengaluru,Bangalore Urban,Bangalore North,Mahalakshmi Layout,66,16-03-2009,POINT (77.47117062422014 12.992725783461895),trf_178,Mahalakshmi Layout,,3.0,1.279,0.628,1228.0,4106.0,4643.0,0.0,57.85,1800.17,ward_78,88601458ebfffff,77.47117062422014,12.992725783461895
179,179,Bengaluru,Kolar,Mulbagal,Mallanayakanahalli,66,01-04-2017,POINT (77.45795339316248 12.975732674382039),trf_179,Mallanayakanahalli,,1.0,0.321,0.278,1161.0,3351.0,1516.0,0.0,192.23,778.96,ward_79,88601458d5fffff,77.45795339316248,12.975732674382039
180,180,Bengaluru,Kolar,Srinivaspur,Mallasandra,66,09-01-2008,POINT (77.73206907242749 12.972642253362764),trf_180,Mallasandra,,3.0,0.546,0.172,1814.0,4300.0,1997.0,1.0,60.47,518.67,ward_80,88618920a5fffff,77.73206907242749,12.972642253362764
181,181,Bengaluru,Kolar,Malur,Malur,66,18-07-1979,POINT (77.56645097786196 12.992986465532706),trf_181,Malur,,1.0,4.082,1.644,23669.0,32735.0,6804.0,0.0,27.84,888.09,ward_81,8860145b03fffff,77.56645097786196,12.992986465532706
182,182,Bengaluru,Kolar,Malur,Malur IA,66,30-10-2006,POINT (77.58747586714746 12.96368503679478),trf_182,Malur IA,,3.0,0.408,0.386,2155.0,3513.0,1115.0,1.0,79.03,78.92,ward_82,88618925b5fffff,77.58747586714746,12.96368503679478
183,183,Bengaluru,CB Pura,Gowribidanur,Manchenahalli,66,26-02-2003,POINT (77.73243944263295 12.915830791340232),trf_183,Manchenahalli,,3.0,0.235,0.217,1282.0,2232.0,602.0,1.0,158.1,249.64,ward_83,88618920cbfffff,77.73243944263295,12.915830791340232
184,184,Bengaluru,CB Pura,CB Pura,Mandikal,66,30-01-2016,POINT (77.73835716914718 13.07160519258682),trf_184,Mandikal,,3.0,0.878,0.797,784.0,6290.0,4134.0,0.0,172.71,1177.46,ward_84,88618928d3fffff,77.73835716914718,13.07160519258682
185,185,Bengaluru,Bangalore Urban,Bangalore South,Manyata Tech Park,66,25-05-2006,POINT (77.5087373404368 12.82080839026255),trf_185,Manyata Tech Park,,3.0,0.211,0.163,489.0,1604.0,499.0,0.0,173.12,1961.48,ward_85,886014504dfffff,77.5087373404368,12.82080839026255
186,186,Bengaluru,Ramanagar,Kanakapura,Maralawadi,66,05-09-1998,POINT (77.48023340041323 12.805466547695465),trf_186,Maralawadi,,3.0,0.767,0.483,4400.0,3685.0,402.0,1.0,169.39,1786.18,ward_86,8860145059fffff,77.48023340041323,12.805466547695465
187,187,Bengaluru,Kolar,Malur,Masti,66,16-09-1987,POINT (77.47833288822679 13.004902032024907),trf_187,Masti,,1.0,0.454,0.265,1707.0,5147.0,42.0,0.0,137.54,1445.41,ward_87,88601458e1fffff,77.47833288822679,13.004902032024907
188,188,Bengaluru,Bangalore Urban,Bangalore North,Mathikere,66,27-09-2004,POINT (77.47135659453807 12.89569268908813),trf_188,Mathikere,,3.0,3.695,1.733,17834.0,20355.0,3737.0,1.0,199.56,1353.64,ward_88,88601451e1fffff,77.47135659453807,12.89569268908813
189,189,Bengaluru,Ramanagar,Magadi,Mattikere (Hellegalli),66,12-01-2018,POINT (77.70346259329084 12.806981580720748),trf_189,Mattikere (Hellegalli),,3.0,0.024,0.018,120.0,232.0,16.0,1.0,131.71,1532.23,ward_89,88618934adfffff,77.70346259329084,12.806981580720748
190,190,Bengaluru,Bangalore Urban,Bangalore North,MEI Layout(Bagalkunte),66,31-08-2007,POINT (77.69434054477668 12.88455643243202),trf_190,MEI Layout(Bagalkunte),,3.0,0.098,0.055,46.0,653.0,192.0,0.0,69.76,222.0,ward_90,8861892709fffff,77.69434054477668,12.88455643243202
191,191,Bengaluru,Ramanagar,Ramanagara,Mellehalli,66,31-03-2007,POINT (77.4854494482865 13.009021149609245),trf_191,Mellehalli,,3.0,0.082,0.075,257.0,467.0,30.0,0.0,158.9,1414.17,ward_91,88601458e5fffff,77.4854494482865,13.009021149609245
192,192,Bengaluru,CB Pura,Shidlagatta,Melur,66,30-10-2006,POINT (77.63868285403396 13.063241604058115),trf_192,Melur,,1.0,4.626,1.95,6450.0,25577.0,17841.0,1.0,181.22,642.99,ward_92,8861892c33fffff,77.63868285403396,13.063241604058115
193,193,Bengaluru,Kolar,Mulbagal,Mudiyanur,66,23-11-2007,POINT (77.67052131314117 13.041044279115454),trf_193,Mudiyanur,,3.0,0.644,0.602,2332.0,4006.0,2003.0,0.0,177.73,1006.17,ward_93,8861892c09fffff,77.67052131314117,13.041044279115454
194,194,Bengaluru,Kolar,Mulbagal,Mulbagal,66,16-10-1991,POINT (77.5346103717714 12.853231863133917),trf_194,Mulbagal,,3.0,0.629,0.16,2576.0,3257.0,2156.0,2.0,104.03,285.75,ward_94,886014533dfffff,77.5346103717714,12.853231863133917
195,195,Bengaluru,Bangalore Urban,Bangalore East,N.G.E.F.,66,21-11-1987,POINT (77.67518442549226 13.042050421780178),trf_195,N.G.E.F.,,3.0,0.502,0.207,403.0,4350.0,131.0,1.0,0.03,1022.26,ward_95,8861892c47fffff,77.67518442549226,13.042050421780178
196,196,Bengaluru,CB Pura,Chintamani,N.G.Halli,66,12-03-1995,POINT (77.74715154260021 12.923785303073428),trf_196,N.G.Halli,,1.0,0.71,0.175,3576.0,2154.0,841.0,1.0,20.38,720.47,ward_96,88618920cdfffff,77.74715154260021,12.923785303073428
197,197,Bengaluru,Kolar,Bangarpet,N.G.Hulkur,66,10-07-2014,POINT (77.56160542573784 13.0329238882226),trf_197,N.G.Hulkur,,3.0,0.32,0.253,1712.0,2209.0,1398.0,0.0,192.82,178.58,ward_97,8860145941fffff,77.56160542573784,13.0329238882226
198,198,Bengaluru,Bangalore Urban,Bangalore South,Naganathapura,66,30-10-1999,POINT (77.55224106207591 13.07922719768107),trf_198,Naganathapura,,3.0,0.394,0.266,1664.0,1197.0,316.0,1.0,193.21,1522.08,ward_98,8860145925fffff,77.55224106207591,13.07922719768107
199,199,Bengaluru,Bangalore Rural,Hosakote,Nandagudi,66,22-11-1997,POINT (77.7075238255529 12.928698208212506),trf_199,Nandagudi,,3.0,0.305,0.085,1431.0,2683.0,71.0,0.0,191.36,1000.8,ward_99,886189209dfffff,77.7075238255529,12.928698208212506
200,200,Bengaluru,CB Pura,Chintamani,Nandiganahalli,66,11-10-2017,POINT (77.67526132033746 13.026362862225405),trf_200,Nandiganahalli,,3.0,0.217,0.103,481.0,753.0,799.0,0.0,164.44,1700.7,ward_100,8861892c4bfffff,77.67526132033746,13.026362862225405
201,201,Bengaluru,Bangalore Urban,Bangalore North,Nandini Layout,66,08-06-1990,POINT (77.48093716065078 13.07076587200387),trf_201,Nandini Layout,,3.0,0.478,0.411,619.0,4350.0,1394.0,0.0,27.32,1303.28,ward_1,88601459a3fffff,77.48093716065078,13.07076587200387
202,202,Bengaluru,Kolar,Mulbagal,Nangli,66,15-05-1996,POINT (77.60157571173436 13.047937239832322),trf_202,Nangli,,3.0,0.648,0.322,2773.0,3106.0,2769.0,0.0,73.56,116.18,ward_2,8861892c81fffff,77.60157571173436,13.047937239832322
203,203,Bengaluru,Kolar,Kolar,Narasapura,66,07-05-2008,POINT (77.54601488030919 13.06865696854886),trf_203,Narasapura,,1.0,0.275,0.227,24.0,1763.0,445.0,0.0,24.87,827.29,ward_3,8860145921fffff,77.54601488030919,13.06865696854886
204,204,Bengaluru,Bangalore Urban,Bangalore South,"National College (GIS)(Mahila Samaja)",66,28-01-2015,POINT (77.56676050362024 12.80325129544409),trf_204,"National College (GIS)(Mahila Samaja)",,3.0,0.536,0.346,32.0,3847.0,2479.0,0.0,135.51,623.73,ward_4,886014c9a3fffff,77.56676050362024,12.80325129544409
205,205,Bengaluru,Bangalore Urban,Bangalore North,Nelakadirenahalli,66,28-02-2009,POINT (77.72161459292577 12.82738600303584),trf_205,Nelakadirenahalli,,3.0,0.526,0.49,396.0,1658.0,1944.0,1.0,53.12,35.1,ward_5,8861893589fffff,77.72161459292577,12.82738600303584
206,206,Bengaluru,Bangalore Rural,Nelamangala,Nelamangala,66,10-10-1980,POINT (77.54579409127713 13.085018590115242),trf_206,Nelamangala,,3.0,0.523,0.241,1167.0,1575.0,753.0,2.0,4.72,1797.12,ward_6,88601696cdfffff,77.54579409127713,13.085018590115242
207,207,Bengaluru,CB Pura,CB Pura,Nellimaradahalli,66,26-11-2007,POINT (77.73518214408126 12.972031366436985),trf_207,Nellimaradahalli,,3.0,0.463,0.231,841.0,1663.0,507.0,0.0,96.82,1494.89,ward_7,88618921d3fffff,77.73518214408126,12.972031366436985
208,208,Bengaluru,Bangalore Urban,Bangalore South,Nimhans,66,26-02-2004,POINT (77.63955116365094 12.934533656593496),trf_208,Nimhans,,3.0,9.62,8.726,45321.0,114689.0,25142.0,1.0,73.14,450.76,ward_8,8861892511fffff,77.63955116365094,12.934533656593496
209,209,Bengaluru,Bangalore Urban,Bangalore North,NRS Rajajinagar,66,01-06-1998,POINT (77.53796323150942 12.898599363610975),trf_209,NRS Rajajinagar,,1.0,6.602,5.189,22908.0,28538.0,25704.0,1.0,134.83,519.81,ward_9,8860145161fffff,77.53796323150942,12.898599363610975
210,210,Bengaluru,Bangalore Urban,Bangalore South,Padmanabhanagar,66,27-02-2004,POINT (77.65175553682312 13.025712358831305),trf_210,Padmanabhanagar,,3.0,0.298,0.165,1592.0,2792.0,89.0,0.0,1.57,1261.84,ward_10,8861892c53fffff,77.65175553682312,13.025712358831305
211,211,Bengaluru,CB Pura,Shidlagatta,Pallicherlu,66,06-01-2017,POINT (77.68747371311775 13.036885442838367),trf_211,Pallicherlu,,3.0,9.621,5.746,13964.0,72210.0,31385.0,0.0,54.94,1613.93,ward_11,8861892c45fffff,77.68747371311775,13.036885442838367
212,212,Bengaluru,CB Pura,Bagepalli,Pathapalya,66,30-03-2012,POINT (77.4773618309146 12.948326091410774),trf_212,Pathapalya,,3.0,0.438,0.102,436.0,3070.0,440.0,0.0,168.73,1962.39,ward_12,8860145a87fffff,77.4773618309146,12.948326091410774
213,213,Bengaluru,CB Pura,CB Pura,Peresandra,66,12-07-1984,POINT (77.46726762800499 12.96485866469712),trf_213,Peresandra,,3.0,0.25,0.23,295.0,2891.0,1194.0,2.0,51.91,873.99,ward_13,8860145ab7fffff,77.46726762800499,12.96485866469712
214,214,Bengaluru,Bangalore Rural,Hosakote,Pillaguppa,66,27-06-1985,POINT (77.58245915041202 13.06631125482749),trf_214,Pillaguppa,,3.0,6.601,6.178,7529.0,66890.0,28767.0,2.0,195.46,1514.62,ward_14,8861892cb7fffff,77.58245915041202,13.06631125482749
215,215,Bengaluru,Bangalore Urban,Bangalore North,Platinum city,66,25-11-2009,POINT (77.55527450376563 12.835120104928283),trf_215,Platinum city,,1.0,0.721,0.278,2771.0,6489.0,563.0,0.0,154.33,997.79,ward_15,886014536bfffff,77.55527450376563,12.835120104928283
216,216,Bengaluru,Bangalore Urban,Bangalore East,Pottery Road,66,29-04-1979,POINT (77.49289750461585 13.028453189515242),trf_216,Pottery Road,,1.0,4.213,3.769,5780.0,36692.0,4491.0,0.0,169.61,1457.72,ward_16,88601459c3fffff,77.49289750461585,13.028453189515242
217,217,Bengaluru,Bangalore Urban,Bangalore South,Primal Project,66,31-08-2015,POINT (77.63546541899488 12.830336802836838),trf_217,Primal Project,,1.0,0.039,0.022,155.0,159.0,54.0,0.0,183.91,1986.51,ward_17,8861892611fffff,77.63546541899488,12.830336802836838
218,218,Bengaluru,Bangalore Urban,Bangalore South,R R Nagar,66,30-12-1998,POINT (77.4752320418345 13.010290739437735),trf_218,R R Nagar,,1.0,0.378,0.187,1711.0,4258.0,1725.0,0.0,71.42,1575.1,ward_18,88601458e7fffff,77.4752320418345,13.010290739437735
219,219,Bengaluru,Bangalore Urban,Bangalore North,Rajankunte,66,10-10-2008,POINT (77.47182890190926 13.046558017787106),trf_219,Rajankunte,,3.0,0.365,0.253,526.0,1724.0,1609.0,0.0,101.19,441.71,ward_19,8860145995fffff,77.47182890190926,13.046558017787106
220,220,Bengaluru,Ramanagar,Ramanagara,Ramanagara,66,04-02-1970,POINT (77.66187266814696 12.82440463419257),trf_220,Ramanagara,,1.0,2.577,2.191,4368.0,29775.0,7194.0,0.0,116.02,1033.4,ward_20,8861892655fffff,77.66187266814696,12.82440463419257
221,221,Bengaluru,Ramanagar,Kanakapura,Ranganadoddi,66,01-11-1997,POINT (77.47545131422557 13.095991873550352),trf_221,Ranganadoddi,,3.0,0.36,0.313,2044.0,3972.0,725.0,1.0,99.51,409.36,ward_21,8860144b6bfffff,77.47545131422557,13.095991873550352
222,222,Bengaluru,Bangalore Urban,Bangalore South,RBI,66,06-02-2002,POINT (77.56228123872684 12.911192644120067),trf_222,RBI,,3.0,3.984,3.352,4950.0,14503.0,1320.0,1.0,81.88,1621.76,ward_22,88618924b5fffff,77.56228123872684,12.911192644120067
223,223,Bengaluru,Bangalore Urban,Bangalore North,REMCO,66,03-12-2010,POINT (77.69383987017726 13.084174573215158),trf_223,REMCO,,3.0,0.697,0.543,2738.0,3042.0,2930.0,0.0,56.49,850.46,ward_23,8861892d55fffff,77.69383987017726,13.084174573215158
224,224,Bengaluru,Bangalore Urban,Bangalore North,RMV,66,05-02-1998,POINT (77.74580031914687 13.026013455577683),trf_224,RMV,,1.0,7.89,1.578,19720.0,60773.0,2069.0,1.0,60.84,607.89,ward_24,8861892f49fffff,77.74580031914687,13.026013455577683
225,225,Bengaluru,Kolar,Kolar,S.M.Mangala,66,19-11-2006,POINT (77.56287787565928 12.8250502150096),trf_225,S.M.Mangala,,3.0,7.564,6.998,10179.0,67830.0,26936.0,1.0,60.59,650.59,ward_25,8860145345fffff,77.56287787565928,12.8250502150096
226,226,Bengaluru,CB Pura,Shidlagatta,Sadali,66,01-09-1996,POINT (77.68314407477823 12.967521274920742),trf_226,Sadali,,3.0,0.19,0.091,1028.0,1949.0,898.0,1.0,118.13,1322.03,ward_26,8861892e5bfffff,77.68314407477823,12.967521274920742
227,227,Bengaluru,Bangalore Urban,Bangalore North,Sahakarnagar,66,27-07-2003,POINT (77.57726660277409 13.07190631552842),trf_227,Sahakarnagar,,1.0,0.712,0.232,3335.0,5877.0,3254.0,0.0,53.07,1203.11,ward_27,8860169659fffff,77.57726660277409,13.07190631552842
228,228,Bengaluru,Ramanagar,Channapatna,Sankalagere,66,18-02-2016,POINT (77.48335924469185 12.947787531287258),trf_228,Sankalagere,,3.0,0.761,0.211,2346.0,5768.0,1349.0,2.0,142.87,923.43,ward_28,8860145a87fffff,77.48335924469185,12.947787531287258
229,229,Bengaluru,Bangalore Urban,Bangalore South,Sarakki,66,01-09-1976,POINT (77.45340609343023 12.940598192598237),trf_229,Sarakki,,3.0,0.732,0.619,1204.0,7513.0,686.0,0.0,67.12,1957.05,ward_29,8860144369fffff,77.45340609343023,12.940598192598237
230,230,Bengaluru,Bangalore Urban,Bangalore East,Shobha Apartments,66,21-01-2012,POINT (77.46689098270456 12.835645374880421),trf_230,Shobha Apartments,,3.0,0.73,0.454,4148.0,5450.0,1333.0,0.0,157.24,1468.89,ward_30,8860145015fffff,77.46689098270456,12.835645374880421
231,231,Bengaluru,Bangalore Urban,Bangalore North,Shreegandhakaval,66,18-05-2016,POINT (77.48525787403314 12.99476309063482),trf_231,Shreegandhakaval,,3.0,8.551,1.783,36104.0,100323.0,17964.0,0.0,140.97,1634.26,ward_31,88601458e9fffff,77.48525787403314,12.99476309063482
232,232,Bengaluru,Ramanagar,Magadi,Shrigiripura,66,12-03-2019,POINT (77.67381346377962 12.975010629529148),trf_232,Shrigiripura,,3.0,0.061,0.035,263.0,657.0,52.0,1.0,79.31,263.43,ward_32,8861892e19fffff,77.67381346377962,12.975010629529148
233,233,Bengaluru,CB Pura,Shidlagatta,Sidlaghatta,66,18-09-1992,POINT (77.73865176454237 12.912461173857112),trf_233,Sidlaghatta,,3.0,3.788,1.582,19805.0,34298.0,14486.0,0.0,124.97,1143.49,ward_33,88618922b5fffff,77.73865176454237,12.912461173857112
234,234,Bengaluru,Bangalore Urban,Bangalore North,Sir MV Layout,66,20-07-2010,POINT (77.53571362588455 13.060579738456838),trf_234,Sir MV Layout,,3.0,0.022,0.016,7.0,175.0,30.0,0.0,70.59,1242.58,ward_34,886014593dfffff,77.53571362588455,13.060579738456838
235,235,Bengaluru,Bangalore Urban,Bangalore North,Soladevanahalli,66,10-03-1995,POINT (77.51707875155584 13.088966761832182),trf_235,Soladevanahalli,,3.0,0.41,0.103,1928.0,2284.0,852.0,1.0,11.32,747.84,ward_35,8860169689fffff,77.51707875155584,13.088966761832182
236,236,Bengaluru,Bangalore Urban,Bangalore South,Somanahalli,66,01-07-1986,POINT (77.45364634240694 13.090963648012291),trf_236,Somanahalli,,3.0,0.675,0.455,806.0,4566.0,2433.0,0.0,55.57,552.64,ward_36,8860144b0bfffff,77.45364634240694,13.090963648012291
237,237,Bengaluru,Kolar,Srinivaspur,Somayajanahalli,66,04-04-2003,POINT (77.46294797358517 13.067342934109421),trf_237,Somayajanahalli,,3.0,0.077,0.045,83.0,904.0,42.0,0.0,147.58,1409.11,ward_37,88601459b7fffff,77.46294797358517,13.067342934109421
238,238,Bengaluru,CB Pura,Gudibande,Somenahalli,66,27-01-2016,POINT (77.60831033272589 13.09788943883579),trf_238,Somenahalli,,3.0,0.404,0.161,498.0,2968.0,521.0,0.0,131.35,1937.07,ward_38,8861892d97fffff,77.60831033272589,13.09788943883579
239,239,Bengaluru,CB Pura,Bagepalli,Somnathpura,66,21-06-1981,POINT (77.47213896942063 12.966156285320396),trf_239,Somnathpura,,3.0,1.68,1.535,2997.0,6432.0,4831.0,1.0,53.48,30.22,ward_39,8860145ab5fffff,77.47213896942063,12.966156285320396
240,240,Bengaluru,Bangalore Urban,Bangalore South,Southcity (Kothnur),66,28-05-2007,POINT (77.74079076068573 12.956929353251045),trf_240,Southcity (Kothnur),,3.0,0.679,0.496,2485.0,3949.0,884.0,0.0,173.22,1893.47,ward_40,88618920e7fffff,77.74079076068573,12.956929353251045
241,241,Bengaluru,Kolar,Srinivaspur,Srinivaspur,66,27-09-2004,POINT (77.63881959144058 13.008724606695385),trf_241,Srinivaspur,,1.0,9.503,7.15,50347.0,45840.0,26802.0,1.0,81.63,30.79,ward_41,8861892ea9fffff,77.63881959144058,13.008724606695385
242,242,Bengaluru,Bangalore Urban,Bangalore North,SRS Peenya,66,25-01-1965,POINT (77.58636231943034 12.988267424025219),trf_242,SRS Peenya,,3.0,0.456,0.419,1092.0,4815.0,413.0,2.0,1.66,867.17,ward_42,8860145b47fffff,77.58636231943034,12.988267424025219
243,243,Bengaluru,Bangalore Urban,Bangalore South,St Johns Wood (Adugodi),66,30-03-2009,POINT (77.62529429357693 13.070347403147297),trf_243,St Johns Wood (Adugodi),,1.0,0.915,0.481,1420.0,6322.0,3177.0,0.0,117.89,1226.58,ward_43,8861892ddbfffff,77.62529429357693,13.070347403147297
244,244,Bengaluru,Bangalore Urban,Bangalore South,Subramanyapura,66,02-10-1986,POINT (77.46363391410245 12.88428895687767),trf_244,Subramanyapura,,3.0,55.984,41.178,30699.0,268356.0,235797.0,1.0,49.68,428.81,ward_44,88601451c7fffff,77.46363391410245,12.88428895687767
245,245,Bengaluru,Kolar,Kolar,Sugutur,66,20-08-2008,POINT (77.73512344522297 13.067079135167274),trf_245,Sugutur,,3.0,0.072,0.039,317.0,609.0,233.0,0.0,190.3,1676.98,ward_45,8861892f2dfffff,77.73512344522297,13.067079135167274
246,246,Bengaluru,Bangalore Rural,Hosakote,Sulibele,66,11-09-1998,POINT (77.58669702583572 12.98603977934046),trf_246,Sulibele,,3.0,0.933,0.567,1121.0,7978.0,3327.0,1.0,13.69,742.23,ward_46,8860145b47fffff,77.58669702583572,12.98603977934046
247,247,Bengaluru,Bangalore Urban,Anekal,Suryanagar_KHB,66,25-09-2010,POINT (77.53321435489434 12.856436347917128),trf_247,Suryanagar_KHB,,3.0,0.543,0.218,1200.0,6005.0,1737.0,1.0,126.05,496.77,ward_47,8860145335fffff,77.53321435489434,12.856436347917128
248,248,Bengaluru,Bangalore Rural,Nelamangala,T Begur,66,30-07-2010,POINT (77.589109521482 12.906005668407817),trf_248,T Begur,,3.0,0.448,0.308,2517.0,1602.0,1774.0,0.0,88.78,43.83,ward_48,88618924e7fffff,77.589109521482,12.906005668407817
249,249,Bengaluru,CB Pura,Chintamani,Talagawara,66,28-10-1993,POINT (77.62509683355526 12.823320391089496),trf_249,Talagawara,,3.0,0.066,0.038,367.0,261.0,242.0,0.0,131.03,520.47,ward_49,88618926cdfffff,77.62509683355526,12.823320391089496
250,250,Bengaluru,Kolar,Kolar,Tamaka,66,12-03-1987,POINT (77.74231844229985 13.09586322334388),trf_250,Tamaka,,1.0,1.634,0.554,6512.0,17868.0,6385.0,1.0,57.84,619.61,ward_50,8861892883fffff,77.74231844229985,13.09586322334388
251,251,Bengaluru,Bangalore Urban,Bangalore North,TATA Institute(IISC),66,26-01-2000,POINT (77.65944851420592 12.960828909903237),trf_251,TATA Institute(IISC),,3.0,0.54,0.253,1146.0,5647.0,2046.0,0.0,182.76,1905.63,ward_51,8861892523fffff,77.65944851420592,12.960828909903237
252,252,Bengaluru,Ramanagar,Magadi,Tavarekere,66,04-09-2000,POINT (77.5428582848859 13.044138505912084),trf_252,Tavarekere,,3.0,0.511,0.463,2687.0,2005.0,963.0,0.0,100.63,387.73,ward_52,8860145901fffff,77.5428582848859,13.044138505912084
253,253,Bengaluru,Kolar,Mulbagal,Tayalur,66,02-03-1998,POINT (77.65541935176617 12.848785081803468),trf_253,Tayalur,,3.0,0.84,0.709,3772.0,5840.0,2462.0,0.0,134.73,358.51,ward_53,886189263dfffff,77.65541935176617,12.848785081803468
254,254,Bengaluru,Kolar,Malur,Tekal,66,30-06-2000,POINT (77.72327815534815 13.04676117287695),trf_254,Tekal,,3.0,0.126,0.041,2.0,1193.0,443.0,0.0,32.27,167.11,ward_54,8861892f01fffff,77.72327815534815,13.04676117287695
255,255,Bengaluru,Bangalore Urban,Bangalore North,Telecom Layout,66,26-12-2005,POINT (77.73493997398758 13.017715852516508),trf_255,Telecom Layout,,1.0,9.018,3.437,19169.0,35604.0,9625.0,0.0,121.55,490.7,ward_55,88618921b5fffff,77.73493997398758,13.017715852516508
256,256,Bengaluru,Ramanagar,Magadi,TG Halli,66,31-08-2007,POINT (77.63402455878074 12.925472910887185),trf_256,TG Halli,,1.0,0.242,0.088,1394.0,2068.0,647.0,0.0,85.79,1081.81,ward_56,886189251bfffff,77.63402455878074,12.925472910887185
257,257,Bengaluru,CB Pura,Bagepalli,Thimmampalli,66,03-06-1998,POINT (77.72981854500621 13.059819166850122),trf_257,Thimmampalli,,3.0,0.18,0.104,445.0,1950.0,546.0,0.0,23.08,1211.28,ward_57,8861892f29fffff,77.72981854500621,13.059819166850122
258,258,Bengaluru,CB Pura,Gowribidanur,Thondebhavi,66,17-04-1992,POINT (77.46356560103186 12.807910092349177),trf_258,Thondebhavi,,1.0,0.151,0.109,187.0,986.0,649.0,0.0,101.56,838.54,ward_58,88601452adfffff,77.46356560103186,12.807910092349177
259,259,Bengaluru,Bangalore Rural,Nelamangala,Thyamagondlu,66,28-07-2010,POINT (77.56293901006342 13.04316599923455),trf_259,Thyamagondlu,,1.0,0.078,0.043,262.0,675.0,258.0,0.0,2.0,1446.89,ward_59,886014596bfffff,77.56293901006342,13.04316599923455
260,260,Bengaluru,Bangalore Rural,DB pura,Tubagere,66,31-03-2007,POINT (77.74618283879448 12.84512506733106),trf_260,Tubagere,,3.0,0.823,0.685,2395.0,4940.0,3127.0,0.0,36.69,1709.95,ward_60,88618935edfffff,77.74618283879448,12.84512506733106
261,261,Bengaluru,Ramanagar,Channapatna,Vandaraguppe,66,Completed,POINT (77.62823921460564 12.914267256989307),trf_261,Vandaraguppe,,3.0,0.085,0.042,410.0,945.0,83.0,0.0,175.47,778.81,ward_61,8861892423fffff,77.62823921460564,12.914267256989307
262,262,Bengaluru,CB Pura,Gowribidanur,Vatadahosahalli,66,13-02-1994,POINT (77.74097431934437 13.052635676940712),trf_262,Vatadahosahalli,,3.0,0.076,0.052,34.0,485.0,293.0,0.0,199.44,1118.12,ward_62,8861892f61fffff,77.74097431934437,13.052635676940712
263,263,Bengaluru,Kolar,Kolar,Vemgal,66,18-03-1992,POINT (77.70149861141334 12.940607947938492),trf_263,Vemgal,,3.0,0.357,0.171,147.0,2258.0,796.0,1.0,141.75,16.73,ward_63,8861892095fffff,77.70149861141334,12.940607947938492
264,264,Bengaluru,Ramanagar,Kanakapura,Venkatarayanadoddi,66,10-01-2008,POINT (77.5744458507013 12.882022121579212),trf_264,Venkatarayanadoddi,,3.0,0.489,0.1,2360.0,4868.0,1287.0,0.0,153.3,1167.43,ward_64,8861892489fffff,77.5744458507013,12.882022121579212
265,265,Bengaluru,Ramanagar,Magadi,VG_Doddi,66,24-08-2012,POINT (77.46691264899528 13.059416712876516),trf_265,VG_Doddi,,3.0,0.805,0.474,678.0,7278.0,2398.0,1.0,39.0,1780.82,ward_65,88601459b1fffff,77.46691264899528,13.059416712876516
266,266,Bengaluru,Bangalore Urban,Bangalore North,Victoria Hospital,66,21-02-1999,POINT (77.69387030273903 13.099915301985838),trf_266,Victoria Hospital,,3.0,0.761,0.493,2987.0,8373.0,2114.0,1.0,94.78,1432.79,ward_66,8861892d01fffff,77.69387030273903,13.099915301985838
267,267,Bengaluru,CB Pura,Gowribidanur,Vidurashwatha,66,24-03-2008,POINT (77.74899105112218 12.966629511680788),trf_267,Vidurashwatha,,3.0,0.321,0.122,414.0,2190.0,1399.0,0.0,37.58,153.94,ward_67,88618921d9fffff,77.74899105112218,12.966629511680788
268,268,Bengaluru,Bangalore Urban,Bangalore North,Vidyanagar,66,30-11-2004,POINT (77.68069622455415 13.083429718964728),trf_268,Vidyanagar,,3.0,0.824,0.572,3937.0,4489.0,2738.0,0.0,187.81,1272.75,ward_68,8861892d19fffff,77.68069622455415,13.083429718964728
269,269,Bengaluru,Bangalore Urban,Bangalore North,Vijayanagar,66,11-02-1991,POINT (77.70489421720322 12.87420443052296),trf_269,Vijayanagar,,3.0,0.199,0.143,261.0,1663.0,253.0,1.0,155.61,1521.7,ward_69,8861892741fffff,77.70489421720322,12.87420443052296
270,270,Bengaluru,Bangalore Rural,Devanahalli,Vijaypura,66,01-01-1971,POINT (77.58516324059303 12.838747824545448),trf_270,Vijaypura,,1.0,7.291,3.472,18913.0,23917.0,9084.0,0.0,175.84,486.79,ward_70,8861892695fffff,77.58516324059303,12.838747824545448
271,271,Bengaluru,Kolar,Kolar,Vokkaleri,66,07-08-1986,POINT (77.73621530817762 12.981852390335265),trf_271,Vokkaleri,,3.0,7.002,3.097,37723.0,76973.0,10933.0,4.0,115.34,134.51,ward_71,886189219dfffff,77.73621530817762,12.981852390335265
272,272,Bengaluru,Bangalore Rural,Hosakote,Volvo (Yelachenahalli),66,26-05-1998,POINT (77.51859284165104 13.001510205321757),trf_272,Volvo (Yelachenahalli),,1.0,0.333,0.253,1612.0,3570.0,1595.0,0.0,8.07,822.38,ward_72,8860145805fffff,77.51859284165104,13.001510205321757
273,273,Bengaluru,Bangalore Urban,Bangalore North,Welcast Steel,66,19-02-2007,POINT (77.63543847213737 12.907448815409852),trf_273,Welcast Steel,,1.0,4.244,3.343,14417.0,24679.0,13330.0,0.0,2.88,1528.71,ward_73,8861892421fffff,77.63543847213737,12.907448815409852
274,274,Bengaluru,Bangalore Urban,Bangalore North,WIDIA,66,07-08-2003,POINT (77.48406727765989 13.00147195867784),trf_274,WIDIA,,3.0,0.049,0.041,182.0,395.0,147.0,1.0,116.19,1981.36,ward_74,88601458edfffff,77.48406727765989,13.00147195867784
275,275,Bengaluru,CB Pura,Shidlagatta,Y.Hunsenahalli,66,07-07-1996,POINT (77.60609231027114 13.031695517520692),trf_275,Y.Hunsenahalli,,3.0,0.71,0.349,975.0,5944.0,3163.0,1.0,105.54,423.27,ward_75,8861892cd5fffff,77.60609231027114,13.031695517520692
276,276,Bengaluru,Bangalore Urban,Bangalore South,Yarandanahalli,66,24-02-1999,POINT (77.6060490503336 13.055654450095561),trf_276,Yarandanahalli,,3.0,0.653,0.525,2802.0,5445.0,167.0,0.0,134.96,1355.06,ward_76,8861892c85fffff,77.6060490503336,13.055654450095561
277,277,Bengaluru,Ramanagar,Kanakapura,Yedamadu,66,01-02-2010,POINT (77.61557205163234 12.968281391460616),trf_277,Yedamadu,,3.0,0.176,0.101,730.0,1632.0,548.0,0.0,31.24,1271.88,ward_77,88618925adfffff,77.61557205163234,12.968281391460616
278,278,Bengaluru,Bangalore Urban,Bangalore North,Yelahanka,66,21-11-1984,POINT (77.71299608079751 12.92104485986372),trf_278,Yelahanka,,3.0,7.346,3.977,29432.0,77400.0,5985.0,0.0,155.82,1219.39,ward_78,88618920d1fffff,77.71299608079751,12.92104485986372
279,279,Bengaluru,Kolar,Srinivaspur,Yeldur,66,02-03-1998,POINT (77.49020456853519 12.808634802894002),trf_279,Yeldur,,3.0,0.805,0.741,2589.0,5954.0,1553.0,0.0,114.52,554.03,ward_79,8860145237fffff,77.49020456853519,12.808634802894002
280,280,Bengaluru,CB Pura,Chintamani,Yenigadale,66,10-12-2002,POINT (77.67654117670209 12.98609286540604),trf_280,Yenigadale,,3.0,0.597,0.278,186.0,1962.0,1213.0,0.0,121.37,1761.95,ward_80,8861892e1dfffff,77.67654117670209,12.98609286540604
